Address                                            ,latitude           ,longitude           ,fips_codes_30_mile                                                                                                               ,casino_control_counties,Tribe Name                                                                            ,TribeDividend,SeatsSlots ,Open_Date ,SquareFeetGaming ,RenovationDate ,Revenue_FY23   ,Cost,ID,State,Casino_Name
310 Bayview Blvd Klawock AK 99925                  ,55.55855186421552,-133.0981653283702,['02198']                                                                                                                        ,"['02275', '02130', '02195']",Klawock Cooperative Association                                                       ,0.0,65,     2020 ,                 ,               ,1.0,          ,1,AK,Klawock Bingo
Western Ave Metlakatla AK 99926                    ,55.1278099,-131.5837248,"['02130', '02198']                                                                                                             ",['02275'],Metlakatla Indian Community Annette Island Reservation                                ,0.0,90,     2006 ,            6000 ,               ,1.0,          ,2,AK,MIC Gaming Casino
6450 AL-21 Atmore AL 36502                         ,31.112286347379865,-87.47290405836011,"['01035', '12033', '12113', '01053', '01003', '01099', '01025']                                                                ","['01061', '01065', '28041', '01129', '28131', '28111', '01013', '01105', '01109', '01097', '01041', '01101', '28023', '01119', '12131', '28039', '01023', '01063', '01039', '12091', '01047', '01085', '28153', '28059', '01031', '12059', '01131', '01001', '01091']",Poarch Band of Creek Indians                                                          ,70000.0,1700,     2009 ,           57000 ,               ,156.270229, 245000000,3,AL,Wind Creek Casino and Hotel - Atmore
1801 Eddie L Tullis Rd Montgomery AL 36117         ,32.425383,-86.1392198,"['01001', '01051', '01087', '01101', '01041', '01021', '01037', '01085', '01011', '01109', '01123']                            ","['01061', '01065', '01005', '01113', '01015', '01029', '01115', '13199', '01069', '13061', '01035', '01027', '01121', '01013', '01105', '01007', '01111', '01117', '13053', '01053', '13215', '01067', '13149', '01099', '13145', '13239', '12131', '01081', '13077', '13045', '13259', '01073', '01045', '01125', '01039', '01017', '01009', '01047', '13285', '13099', '01055', '01031', '12059', '01131', '13243', '01091']",Poarch Band of Creek Indians                                                          ,70000.0,2200,     2015 ,           90000 ,               ,202.2320611,  46000000,4,AL,Wind Creek Casino and Hotel - Montgomery
100 River Oaks Dr Wetumpka AL 36092                ,32.5271229,-86.21006333574087,"['01001', '01051', '01087', '01101', '01021', '01037', '01085', '01011', '01123']                                              ","['01061', '01065', '01005', '01113', '01015', '01029', '01115', '13199', '01069', '13061', '01035', '01027', '01121', '01013', '01105', '01109', '01007', '01111', '01117', '13053', '01053', '01041', '13215', '01067', '13149', '01099', '13145', '13239', '13143', '01081', '13045', '13259', '01073', '01045', '01127', '01125', '01039', '01017', '01009', '01047', '13285', '01055', '01031', '01131', '13243', '01091']",Poarch Band of Creek Indians                                                          ,70000.0,2650,     2014 ,          125000 ,               ,243.5977099, 250000000,5,AL,Wind Creek Casino and Hotel - Wetumpka
15406 N Maricopa Rd Maricopa AZ 85139              ,33.02299395,-112.04988984298828,"['04013', '04021']                                                                                                             ","['04025', '04012', '04027', '04019', '04007']",Ak-Chin Indian Community of the Maricopa Indian Reservation                           ,,1135,     1994 ,           40000 ,          2011 ,150.0, 162084640,6,AZ,Harrah's Ak-Chin Casino Resort
15318 S Avenue B Somerton AZ 85350                 ,32.6186616,-114.6496882,"['06025', '04027', '04012']                                                                                                    ","['06065', '04019', '04013']",Cocopah Tribe of Arizona                                                              ,,400,     1993 ,           24000 ,          2003 ,50.8,  15000000,7,AZ,Cocopah Bingo and Casino
100 W Riverside Dr Parker AZ 85344                 ,34.1525717,-114.2840198,"['04015', '06071', '06065', '04012']                                                                                           ","['06025', '04025', '04027', '32003', '04013']",Colorado River Indian Tribes of the Colorado River Indian Reservation (AZ and CA)     ,,500,     1999 ,           30000 ,               ,29.2,  50000000,8,AZ,Blue Water Casino
10180 N Fort McDowell Rd Fort McDowell AZ 85264    ,33.628925,-111.6762303,"['04013', '04007', '04021', '04025']                                                                                           ","['04017', '04009', '04019', '04005']",Fort McDowell Yavapai Nation of Arizona                                               ,,1100,     1984 ,          166341 ,          2020 ,11.8, 120000000,9,AZ,We-Ko-Pa Casino Resort
8555 AZ-95 Mohave Valley AZ 86440                  ,34.90746005126062,-114.59800485118387,"['32003', '04015', '06071']                                                                                                    ","['04025', '06027', '04012', '04005', '06065']",Fort Mojave Indian Tribe                                                              ,,250,     1995 ,           10000 ,               ,14.0,          ,10,AZ,Spirit Mountain Casino
6443 South Komatke Lane                            ,33.3114539,-112.1606291,"['04013', '04021']                                                                                                             ","['04025', '04012', '04027', '04005', '04019', '04007']",Gila River Indian Community of the Gila River Indian Reservation (Arizona)            ,1000.0,1200,     1995 ,           70000 ,          2013 ,147.36, 135000000,11,AZ,Vee Quiva Casino
Chandler AZ 85226                                  ,33.3062031,-111.841185,"['04013', '04021']                                                                                                             ","['04025', '04017', '04009', '04005', '04019', '04007']",Gila River Indian Community of the Gila River Indian Reservation (Arizona)            ,1000.0,1400,     2009 ,          100000 ,          2020 ,171.92, 480000000,12,AZ,Wild Horse Pass Casino
1077 S Kyrene Rd Chandler AZ 85226                 ,33.3191052,-111.9454993,"['04013', '04021']                                                                                                             ","['04025', '04012', '04027', '04017', '04005', '04019', '04007']",Gila River Indian Community of the Gila River Indian Reservation (Arizona)            ,1000.0,1400,     2008 ,          120000 ,          2021 ,171.92, 240000000,13,AZ,Lone Butte Casino
Flagstaff AZ 86004                                 ,35.1987522,-111.651822,"['04005', '04025']                                                                                                             ","['04017', '04013', '04007']",Navajo Nation                                                                         ,0.0,1100,     2013 ,          267000 ,               ,6.2, 175000000,14,AZ,Twin Arrows Navajo Casino Resort
5655 W Valencia Rd Tucson AZ 85757                 ,32.1339052,-110.990759,"['04023', '04021', '04019']                                                                                                    ","['04003', '04009', '04013', '04007']",Pascua Yaqui Tribe of Arizona                                                         ,,1300,     2011 ,           65000 ,          2019 ,73.0, 100000000,15,AZ,Casino Del Sol
Tucson AZ 85757 USA                                ,32.2228765,-110.974847,"['04021', '04019']                                                                                                             ","['04003', '04009', '04013', '04023', '04007']",Pascua Yaqui Tribe of Arizona                                                         ,,410,     1994 ,           50000 ,               ,1.0,          ,16,AZ,Casino of the Sun
524 N 92nd St Scottsdale AZ 85256                  ,33.4768157,-111.8826973,"['04013', '04021']                                                                                                             ","['04025', '04017', '04009', '04005', '04019', '04007']",Salt River Pima-Maricopa Indian Community                                             ,,998,     1998 ,          100000 ,               ,1.7,          ,17,AZ,Casino Arizona
9800 Talking Stick Way Scottsdale AZ 85256         ,33.5408139,-111.86966668693624,"['04013', '04021']                                                                                                             ","['04025', '04017', '04009', '04005', '04019', '04007']",Salt River Pima-Maricopa Indian Community                                             ,,850,     2010 ,           98000 ,               ,190.5, 450000000,18,AZ,Talking Stick Resort
2407 E Ash St Globe AZ 85501                       ,33.3929981,-110.7814202,"['04009', '04013', '04007', '04021']                                                                                           ","['04003', '04025', '04011', '04017', '04001', '04005', '04019']",San Carlos Apache Tribe of the San Carlos Reservation                                 ,,482,     1994 ,           60000 ,               ,1.7,          ,19,AZ,Apache Gold Casino
80440 E Aravaipa Rd Winkelman AZ 85192             ,32.8487462,-110.7028107,"['04009', '04007', '04021', '04019']                                                                                           ","['04003', '04025', '04011', '04017', '04013', '04001', '04023', '04005']",San Carlos Apache Tribe of the San Carlos Reservation                                 ,,300,     2017 ,           15000 ,               ,5.0,  26000000,20,AZ,Apache Sky Casino
9431 W Northern Ave Glendale AZ 85305              ,33.54668555,-112.2611264748243,"['04013', '04021', '04025']                                                                                                    ","['04012', '04027', '04015', '04005', '04019', '04007']",Tohono O'odham Nation of Arizona                                                      ,,1400,     2015 ,           75000 ,               ,163.8645896, 450000000,21,AZ,Desert Diamond Casino West Valley Si'al Ke
Indian Rte 3 Pisinemo AZ 85634                     ,31.922523040816326,-112.21416020408164,['04019']                                                                                                                        ,"['04023', '04021', '04013', '04027']",Tohono O'odham Nation of Arizona                                                      ,,75,     1999 ,                 ,               ,8.778460156,          ,22,AZ,Desert Diamond Why
7350 S Nogales Hwy Tucson AZ 85756                 ,32.1256815,-110.9611126,"['04023', '04021', '04019']                                                                                                    ","['04003', '04009', '04013', '04007']",Tohono O'odham Nation of Arizona                                                      ,,1300,     1987 ,          164000 ,          2007 ,152.159976,  90000000,23,AZ,Desert Diamond Tucson
1100 W Pima Mine Rd Sahuarita AZ 85629             ,32.001234,-110.9780074,"['04023', '04019']                                                                                                             ","['04003', '04021', '04009', '04013', '04007']",Tohono O'odham Nation of Arizona                                                      ,,563,     2001 ,          180000 ,               ,65.89697424,          ,24,AZ,Desert Diamond Sahuarita
308 E Ridge Ln Payson AZ 85541                     ,34.22496844987509,-111.32601950345452,"['04005', '04013', '04007', '04025']                                                                                           ","['04017', '04021', '04009']",Tonto Apache Tribe of Arizona                                                         ,,400,     1993 ,          120000 ,               ,18.2,          ,25,AZ,Mazatzal Hotel & Casino
777 AZ-260 Pinetop AZ 85935                        ,34.12971953061224,-109.9462642244898,"['04007', '04001', '04017']                                                                                                    ","['04021', '35006', '04011', '35031', '04009', '04013', '35017', '04005', '35003']",White Mountain Apache Tribe of the Fort Apache Reservation (Arizona)                  ,,829,     1993 ,           18600 ,               ,6.1,          ,26,AZ,Hon Dah Resort - Casino
555 W Middle Verde Rd Camp Verde AZ 86322          ,34.60643655,-111.86231767922084,"['04005', '04007', '04025']                                                                                                    ","['04017', '04021', '04013']",Yavapai-Apache Nation of the Camp Verde Indian Reservation                            ,2200.0,650,     1995 ,          114000 ,          2016 ,63.7,  30000000,27,AZ,Cliff Castle Casino
500 AZ-89 Prescott AZ 86301                        ,34.5553492,-112.4534938,"['04005', '04025']                                                                                                             ","['04021', '04012', '04013', '04015', '04007']",Yavapai-Prescott Indian Tribe                                                         ,2200.0,475,     1992 ,           24000 ,               ,6.9,  40000000,28,AZ,Bucky's Casino
1505 AZ-69 Prescott AZ 86301                       ,34.548172534799406,-112.44628599456163,['04025']                                                                                                                        ,"['04021', '04012', '04013', '04015', '04005', '04007']",Yavapai-Prescott Indian Tribe                                                         ,2200.0,175,     1994 ,            6000 ,               ,2.0,          ,29,AZ,Yavapai Gaming Center
32-250 Bob Hope Dr Rancho Mirage CA 92270          ,33.814819850000006,-116.40833097632355,"['06073', '06071', '06065']                                                                                                    ","['06037', '06025', '06059']",Agua Caliente Band of Cahuilla Indians                                                ,,1500,     2001 ,           77000 ,          2008 ,217.1065655, 400000000,30,CA,Agua Caliente Casino Rancho Mirage
32-279 Bob Hope Dr Rancho Mirage CA 92270          ,33.8151426,-116.4103821,"['06073', '06071', '06065']                                                                                                    ","['06037', '06025', '06059']",Agua Caliente Band of Cahuilla Indians                                                ,,31,     2021 ,             750 ,               ,4.48686902,          ,31,CA,Agua Caliente Fuel
68960 E Palm Canyon Dr Cathedral City CA 92234     ,33.77888994415348,-116.46071479257007,"['06073', '06071', '06065']                                                                                                    ","['06037', '06025', '06059']",Agua Caliente Band of Cahuilla Indians                                                ,,500,     2020 ,           38000 ,               ,72.36885516, 250000000,32,CA,Agua Caliente Casino Cathedral City
401 E Amado Rd Palm Springs CA 92262               ,33.826751,-116.5238115,"['06073', '06071', '06065']                                                                                                    ","['06037', '06025', '06059']",Agua Caliente Band of Cahuilla Indians                                                ,,1000,     2000 ,           40000 ,               ,144.7377103,  80000000,33,CA,Agua Caliente Casino Palm Springs
101-199 Water St Alturas CA 96101                  ,41.4809316,-120.5422916,"['06035', '06049']                                                                                                             ","['06093', '32027', '41025', '06063', '32013', '41037', '06089', '41035', '32031', '06103']",Alturas Indian Rancheria                                                              ,,128,     1999 ,            6200 ,               ,0.7,   9000000,34,CA,Desert Rose Casino
84360 Avenue 54 Coachella CA 92236                 ,33.656474,-116.19282777079012,"['06073', '06025', '06071', '06065']                                                                                           ",['06059'],Augustine Band of Cahuilla Indians                                                    ,,800,     2002 ,           42000 ,          2016 ,52.3,          ,35,CA,Augustine Casino
1932 Wildcat Canyon Rd Lakeside CA 92040           ,32.890957,-116.891342,['06073']                                                                                                                        ,"['06025', '06071', '06037', '06059', '06065']",Barona Group of Capitan Grande Band of Mission Indians                                ,,2200,     1993 ,          300000 ,          2003 ,440.0, 260000000,36,CA,Barona Valley Ranch Resort and Casino
Main Street Loleta CA                              ,40.6396923,-124.2248146,['06023']                                                                                                                        ,"['06093', '06015', '06089', '06045', '41033', '06103', '41015', '06105']",Bear River Band of the Rohnerville Rancheria                                          ,,350,     2012 ,           13060 ,          2017 ,60.0,          ,37,CA,Bear River Casino Resort
Main Street Loleta CA                              ,40.6396923,-124.2248146,['06023']                                                                                                                        ,"['06093', '06015', '06089', '06045', '41033', '06103', '41015', '06105']",Bear River Band of the Rohnerville Rancheria                                          ,,38,     2020 ,                 ,               ,1.8,   2500000,38,CA,Bear River Pump and Play
4020 Olive Hwy Oroville CA 95966                   ,39.5014381,-121.5314695,"['06057', '06115', '06101', '06063', '06011', '06021', '06007']                                                                ","['06033', '06055', '06091', '06035', '06013', '06097', '06061', '06089', '06077', '06067', '06095', '06045', '06113', '06009', '06103', '06017', '06005']",Berry Creek Rancheria of Maidu Indians of California                                  ,,950,     2005 ,           60000 ,               ,44.8,   1500000,39,CA,Gold Country Casino
33049 Auberry Rd Auberry CA 93602                  ,37.07481299146986,-119.48617762630114,"['06019', '06039', '06043']                                                                                                    ","['06051', '32009', '06029', '06031', '32021', '06107', '06009', '32019', '06099', '06069', '06047', '06027', '06109', '06053', '06003']",Big Sandy Band of Western Mono Indians                                                ,,350,     1995 ,           10000 ,          2025 ,2.9, 400000000,40,CA,Mono Wind Casino
2565 Parallel Dr Lakeport CA 95453                 ,39.02055000671141,-122.91591267114092,"['06033', '06045', '06097', '06011', '06021']                                                                                  ","['06055', '06013', '06081', '06001', '06023', '06101', '06075', '06007', '06089', '06067', '06095', '06113', '06115', '06041', '06103', '06105']",Big Valley Band of Pomo Indians                                                       ,,249,     2013 ,           20000 ,               ,11.7,          ,41,CA,Konocti Vista Casino Resort & Marina
2742 N Sierra Hwy Bishop CA 93514                  ,37.3758512,-118.4105953,"['06019', '06051', '06027', '32009']                                                                                           ","['32023', '06031', '06039', '06043', '32021', '06109', '32019', '06107']",Bishop Paiute Tribe                                                                   ,,500,     2020 ,           28800 ,               ,17.7, 118000000,42,CA,Wanaaha Casino fka Paiute Palace
411 I St Blue Lake CA 95525                        ,40.8815745,-123.98592239285716,"['06023', '06105']                                                                                                             ","['06093', '06015', '41029', '06089', '06045', '41033', '06103', '41015']",Blue Lake Rancheria                                                                   ,,77,     2020 ,                 ,               ,5.0,          ,43,CA,Playstation 777
411 I St Blue Lake CA 95525                        ,40.8815745,-123.98592239285716,"['06023', '06105']                                                                                                             ","['06093', '06015', '41029', '06089', '06045', '41033', '06103', '41015']",Blue Lake Rancheria                                                                   ,,611,     2020 ,           44502 ,               ,35.6,          ,44,CA,Blue Lake Casino
450 S Mills St Ione CA 95640                       ,38.34858990927148,-120.93558183306328,"['06005', '06009', '06099', '06077', '06061', '06017', '06067']                                                                ","['06055', '06091', '06063', '06019', '06051', '06057', '06115', '06013', '06043', '06109', '32031', '32510', '32005', '06001', '06097', '06101', '06021', '06039', '06095', '06011', '06007', '06069', '06047', '06085', '06113', '06003']",Buena Vista Rancheria of Me-Wuk Indians                                               ,,950,     2019 ,           25000 ,               ,7.5, 168000000,45,CA,Harrah's Northern California
84-245 Indio Springs Pkwy Indio CA 92203           ,33.720646,-116.18474359870596,"['06073', '06025', '06071', '06065']                                                                                           ",['06059'],Cabazon Band of Mission Indians                                                       ,,1800,     2004 ,          100000 ,               ,5.7, 200000000,46,CA,Fantasy Springs Resort Casino
3770 CA-45 Colusa CA 95932                         ,39.255378242480944,-122.03151757817574,"['06115', '06101', '06113', '06011', '06021', '06007']                                                                         ","['06055', '06091', '06035', '06063', '06057', '06045', '06017', '06005', '06033', '06013', '06001', '06097', '06075', '06061', '06077', '06067', '06095', '06103', '06105', '06089', '06041']",Cachil Dehe Band of Wintun Indians of the Colusa Indian Community                     ,,1200,     1986 ,           50000 ,          2004 ,13.0, 300000000,47,CA,Colusa Casino Resort
53071 CA-371 Anza CA 92539                         ,33.543997774222625,-116.73350377046516,"['06073', '06065']                                                                                                             ","['06037', '06025', '06071', '06059']",Cahuilla Band of Mission Indians of the Cahuilla Reservation                          ,,353,     1996 ,           14000 ,          2019 ,2.2,  35200000,48,CA,Cahuilla Casino
1800 Golden Acorn Way Campo CA 91906               ,32.7022228,-116.3548245,"['06073', '06025']                                                                                                             ","['06065', '06071', '06059']",Campo Band of Diegueno Mission of the Campo Indian Reservation                        ,,720,     2001 ,           32000 ,          2019 ,35.0,  50000000,49,CA,Golden Acorn Casino
10 Havasu Lake Rd Havasu Lake CA 92363             ,34.49683741458213,-114.4009640536746,"['04015', '06071', '06065', '04012']                                                                                           ","['06025', '04025', '04027', '32003', '04013']",Chemehuevi Indian Tribe of the Chemehuevi Reservation                                 ,,250,     2019 ,           72500 ,               ,15.6,  40000000,50,CA,Havasu Landing Resort & Casino
27 Scenic Drive Trinidad Ca 95570                  ,41.05816623625796,-124.13735654176392,"['06023', '06015']                                                                                                             ","['06093', '41029', '06089', '06045', '41033', '06103', '41015', '06105']",Cher-Ae Heights Indian Community of the Trinidad Rancheria                            ,,300,     1988 ,           50000 ,          2001 ,35.8,    400000,51,CA,Cher-Ae-Heights Casino
16929 Chicken Ranch Road Jamestown CA 95327        ,37.92922465,-120.45175251748788,"['06047', '06009', '06043', '06099', '06109']                                                                                  ","['06001', '06101', '06019', '06051', '06061', '06057', '06077', '06039', '06095', '32021', '06115', '06067', '32019', '06017', '06005', '06013', '06069', '06085', '06113', '32031', '32510', '32005', '06003']",Chicken Ranch Rancheria of Me-wuk Indians of California                               ,,600,     2000 ,           70000 ,          2019 ,23.1, 325000000,52,CA,Chicken Ranch Casino & Bingo
6991 N State St Redwood Valley CA 95470            ,39.2648279,-123.2272868,"['06033', '06045']                                                                                                             ","['06055', '06023', '06097', '06011', '06101', '06007', '06021', '06089', '06095', '06113', '06041', '06103', '06105']",Coyote Valley Band of Pomo Indians                                                    ,,50,     2016 ,            3600 ,               ,1.1,    150000,53,CA,Coyote Valley Mini Casino
3250 CA-128 Geyserville CA 95441                   ,38.70354065,-122.8584299114682,"['06033', '06045', '06055', '06097', '06041']                                                                                  ","['06081', '06013', '06001', '06011', '06101', '06075', '06007', '06021', '06061', '06077', '06067', '06095', '06085', '06115', '06113', '06103', '06105']",Dry Creek Rancheria Band of Pomo Indians                                              ,,1000,     2002 ,           30000 ,          2024 ,62.0, 300000000,54,CA,River Rock Casino
130 Anchor Way Crescent City CA 95531              ,41.743748,-124.18113534123836,"['06023', '41015', '06015']                                                                                                    ","['06093', '41011', '41029', '41019', '41033', '06105']",Elk Valley Rancheria                                                                  ,,300,     1995 ,           36000 ,          2022 ,5.8,  30000000,55,CA,Elk Valley Casino
3317 Forty Mile Road Wheatland California 95682    ,39.0506909,-121.51181263119668,"['06057', '06115', '06101', '06113', '06011', '06061', '06067', '06007']                                                       ","['06055', '06091', '06035', '06063', '06045', '06099', '06017', '06005', '06033', '06013', '06109', '06001', '06097', '06021', '06077', '06095', '06009', '06103', '06089', '06041']",Enterprise Rancheria of the Maidu Indians of California                               ,,1500,     2019 ,           62000 ,               ,62.0, 440000000,56,CA,Rocktane Slots & Casino at Fire Mountain
5145 Redwood Dr Rohnert Park CA 94928              ,38.36124425,-122.7142375,"['06033', '06055', '06097', '06095', '06041']                                                                                  ","['06081', '06013', '06001', '06011', '06101', '06075', '06007', '06021', '06087', '06061', '06077', '06067', '06085', '06045', '06115', '06113', '06103']",Federated Indians of Graton Rancheria                                                 ,,3000,     2016 ,          135000 ,          2015 ,304.7, 450000000,57,CA,Graton Resort & Casino
139 US-395 Independence CA 93526                   ,36.80284144897959,-118.19996287755102,"['06019', '06107', '06027']                                                                                                    ","['06071', '32023', '06051', '32009', '06029', '06039', '06031', '32021', '06109']",Fort Independence Indian Community of Paiute Indians of Fort Independence Reservation ,,200,     2012 ,           33000 ,               ,15.0,          ,58,CA,Oak Creek Casino
635 CA-20 Upper Lake CA 95485                      ,39.16152566597906,-122.9035952019679,"['06033', '06045', '06097', '06011', '06021']                                                                                  ","['06055', '06013', '06001', '06023', '06101', '06075', '06007', '06089', '06067', '06095', '06113', '06115', '06041', '06103', '06105']",Habematolel Pomo of Upper Lake                                                        ,,200,     2012 ,           33000 ,               ,26.7,          ,59,CA,Running Creek Casino
12510 CA-96 Hoopa CA 95546                         ,41.0588961,-123.6845383,"['06023', '06093', '06105', '06015']                                                                                           ","['41029', '06089', '06045', '41033', '06103', '41015']",Hoopa Valley Tribe                                                                    ,,100,     1995 ,            5000 ,               ,2.0,          ,60,CA,Lucky Bear Casino
12222 New York Ranch Rd Jackson CA 95642           ,38.3864424,-120.73378344549432,"['06005', '06009', '06099', '06077', '06109', '06017', '06067']                                                                ","['06055', '06091', '06035', '06063', '06019', '06051', '06057', '06115', '32019', '06013', '06043', '32031', '32510', '32005', '06001', '06101', '06061', '06039', '06095', '32029', '06011', '06007', '06047', '06085', '06113', '06003']",Jackson Band of Miwuk Indians                                                         ,,1525,     1991 ,          271000 ,          2012 ,38.0,  80000000,61,CA,Jackson Rancheria Casino & Hotel
14145 Campo Rd Jamul CA 91935                      ,32.705086507386866,-116.869588883239,['06073']                                                                                                                        ,"['06065', '06025', '06071', '06059']",Jamul Indian Village of California                                                    ,,1700,     2016 ,          200000 ,               ,10.7, 515000000,62,CA,Jamul Casino
777 Casino Way Yreka CA 96097                      ,41.71187185,-122.63141244984304,"['06093', '41029', '06105']                                                                                                    ","['06023', '06035', '06049', '06015', '06089', '41035', '41019', '41033', '06103', '41015']",Karuk Tribe                                                                           ,,349,     2018 ,            6000 ,          2023 ,5.0,  40000000,63,CA,Rain Rock Casino
13255 San Pablo Ave San Pablo CA 94806             ,37.9524169,-122.3345221920771,"['06001', '06013', '06081', '06055', '06097', '06095', '06041', '06075']                                                       ","['06045', '06115', '06099', '06017', '06005', '06033', '06087', '06101', '06021', '06061', '06077', '06067', '06009', '06011', '06007', '06069', '06047', '06085', '06113', '06053']",Lytton Rancheria of California                                                        ,,1500,     2002 ,           64000 ,               ,96.0,   6000000,64,CA,San Pablo Lytton Casino
22215 Windy Hollow Rd Point Arena CA 95468         ,38.923563,-123.697321,"['06045', '06097']                                                                                                             ","['06033', '06055', '06023', '06011', '06075', '06021', '06113', '06041', '06103', '06105']",Manchester Band of Pomo Indians of the Manchester Rancheria                           ,,200,     2011 ,            4800 ,               ,5.0,          ,65,CA,Garcia River Casino
22223 CA-29 Middletown CA 95461                    ,38.73012902576792,-122.62193927636476,"['06033', '06045', '06055', '06097', '06113', '06011']                                                                         ","['06081', '06013', '06001', '06007', '06101', '06075', '06021', '06061', '06057', '06077', '06067', '06095', '06085', '06115', '06041', '06103', '06105']",Middletown Rancheria of Pomo Indians of California                                    ,,500,     1994 ,          107000 ,          2009 ,1.9,  42000000,66,CA,Twin Pine Casino
6370 Lower Wyandotte Rd Oroville CA 95966          ,39.5016778,-121.5393026,"['06057', '06115', '06101', '06063', '06011', '06021', '06007']                                                                ","['06033', '06055', '06091', '06035', '06013', '06097', '06061', '06089', '06077', '06067', '06095', '06045', '06113', '06009', '06103', '06017', '06005']",Mooretown Rancheria of Maidu Indians of California                                    ,,300,     1996 ,           11000 ,          1998 ,2.3, 100000000,67,CA,Feather Falls Casino
49020 Seminole Dr Cabazon CA 92230                 ,33.9192362,-116.7829501,"['06071', '06065']                                                                                                             ","['06025', '06037', '06059', '06029', '06073']",Morongo Band of Mission Indians                                                       ,20000.0,100,     2022 ,                 ,               ,11.44854182,          ,68,CA,Morongo Travel Center @ Morongo Trail
49020 Seminole Dr Cabazon CA 92230                 ,33.9192362,-116.7829501,"['06071', '06065']                                                                                                             ","['06025', '06037', '06059', '06029', '06073']",Morongo Band of Mission Indians                                                       ,20000.0,40,     2000 ,                 ,               ,4.579416727,          ,69,CA,Morongo Travel Center @ Seminole Dr.
49500 Seminole Dr Cabazon CA 92230                 ,33.9192362,-116.7829501,"['06071', '06065']                                                                                                             ","['06025', '06037', '06059', '06029', '06073']",Morongo Band of Mission Indians                                                       ,20000.0,4000,     2004 ,          195000 ,          2018 ,457.9416727, 250000000,70,CA,Morongo Casino Resort & Spa
49750 Seminole Dr Cabazon CA 92230                 ,33.9207656,-116.79417949263365,"['06071', '06065']                                                                                                             ","['06025', '06037', '06059', '06029', '06073']",Morongo Band of Mission Indians                                                       ,20000.0,9,       20 ,           30000 ,               ,1.030368764,   3400000,71,CA,Morongo Canyon Lanes
11154 CA-76 Pala CA 92059                          ,33.363134,-117.08473039019958,"['06073', '06065']                                                                                                             ","['06037', '06025', '06071', '06059']",Pala Band of Luiseno Mission Indians of the Pala Reservation                          ,,2250,     2001 ,           86000 ,               ,25.0, 105000000,72,CA,Pala Casino Resort and Spa
2657 Everett Freeman Way Corning CA 96021          ,39.8708946,-122.21149493760048,"['06021', '06103', '06007']                                                                                                    ","['06055', '06091', '06035', '06023', '06097', '06101', '06063', '06061', '06057', '06067', '06095', '06045', '06115', '06105', '06033', '06011', '06093', '06089', '06113']",Paskenta Band of Nomlaki Indians                                                      ,,12,          ,                 ,               ,9.3,          ,73,CA,The Convenience Store
2645 Everett Freeman Way Corning CA 96021          ,39.87330405,-122.20294475061505,"['06021', '06103', '06007']                                                                                                    ","['06055', '06091', '06035', '06023', '06097', '06101', '06063', '06061', '06057', '06067', '06095', '06045', '06115', '06105', '06033', '06011', '06093', '06089', '06113']",Paskenta Band of Nomlaki Indians                                                      ,,850,     2002 ,           60000 ,          2019 ,102.5,          ,74,CA,Rolling Hills Casino
777 Pauma Reservation Rd Pauma Valley CA 92061     ,33.330124299999994,-116.99121360821334,"['06073', '06065']                                                                                                             ","['06037', '06025', '06071', '06059']",Pauma Band of Luiseno Mission Indians of the Pauma - Yuima Reservation                ,,1050,     2001 ,           35000 ,          2018 ,20.0, 300000000,75,CA,Casino Pauma
45000 Pechanga Pkwy Temecula CA 92592              ,33.4555399,-117.1067578,"['06059', '06073', '06065']                                                                                                    ","['06037', '06025', '06071']",Pechanga Band of Luiseno Mission Indians of the Pechanga Reservation                  ,,5400,     2002 ,          200000 ,          2018 ,370.0, 562000000,76,CA,Pechanga Resort and Casino
27694 CA-41 Coarsegold CA 93614                    ,37.2395642,-119.7073672,"['06019', '06047', '06039', '06043']                                                                                           ","['06051', '32009', '06029', '06077', '06031', '32021', '06107', '06009', '06099', '32019', '06017', '06005', '06069', '06027', '06109', '06053', '32005', '06003']",Picayune Rancheria of Chukchansi Indians                                              ,,1800,     2003 ,           56000 ,               ,43.7, 150000000,77,CA,Chukchansi Gold Resort and Casino
20265 Tamarack Ave Burney CA 96013                 ,40.87628,-121.675274,"['06093', '06089', '06035', '06103', '06049']                                                                                  ","['06091', '06007', '41037', '06063', '06021', '41029', '41035', '06115', '06105']",Pit River Tribe                                                                       ,,150,     2005 ,            9000 ,               ,2.5,          ,78,CA,Pit River Casino
525 Algodones Rd Winterhaven CA 92283              ,32.741605750000005,-114.72265918135533,"['06025', '04027', '04012']                                                                                                    ","['06071', '06073', '04013', '06065', '04019']",Quechan Indian Tribe                                                                  ,1400.0,900,     2009 ,           20000 ,               ,1.4, 200000000,79,CA,Quechan Casino Resort
450 Quechan Dr Yuma AZ 85364                       ,32.734295200000005,-114.61314115785852,"['06025', '04027', '04012']                                                                                                    ","['06065', '04019', '06071', '04013']",Quechan Indian Tribe                                                                  ,1400.0,500,     1996 ,           11000 ,          2011 ,1.4,  13000000,80,AZ,Quechan Paradise Casino
2100 Redding Rancheria Rd Redding CA 96001         ,40.5055852,-122.3794723,"['06089', '06103', '06105']                                                                                                    ","['06033', '06011', '06023', '06035', '06093', '06101', '06007', '06063', '06049', '06021', '06045', '06115']",Redding Rancheria                                                                     ,,500,     1993 ,           35000 ,          2024 ,15.0, 400000000,81,CA,Win-River Casino
17128 CA-76 Pauma Valley CA 92061                  ,33.306014,-116.981047,"['06073', '06065']                                                                                                             ","['06037', '06025', '06071', '06059']",Rincon Band of Luiseno Mission Indians of the Rincon Reservation                      ,,1500,     2004 ,           84000 ,          2012 ,750.0, 120000000,82,CA,Harrah's Southern California Resort
1545 CA-20 Nice CA 95464                           ,39.1240454,-122.8594524,"['06033', '06045', '06097', '06011', '06021']                                                                                  ","['06055', '06013', '06001', '06023', '06101', '06075', '06007', '06061', '06089', '06067', '06095', '06113', '06115', '06041', '06103', '06105']",Robinson Rancheria                                                                    ,,300,     1989 ,           42000 ,               ,26.4,          ,83,CA,Robinson Rancheria Bingo & Casino
76700 Covelo Rd Covelo CA 95428                    ,39.739449,-123.259897,"['06023', '06033', '06045', '06021', '06103', '06105']                                                                         ","['06055', '06097', '06093', '06011', '06101', '06007', '06089', '06113']",Round Valley Indian Tribes                                                            ,,100,     2007 ,                 ,               ,2.5,          ,84,CA,Hidden Oaks Casino
30928 Valley Center Rd Valley Center CA 92082      ,33.23077,-116.983258,"['06073', '06065']                                                                                                             ","['06037', '06025', '06071', '06059']",San Pasqual Band of Diegueno Mission Indians of California                            ,,2000,     2001 ,           65000 ,          2019 ,181.0,  50000000,85,CA,Valley View Casino
Lemoore CA 93245                                   ,36.3006495,-119.7827122,"['06019', '06107', '06031']                                                                                                    ","['06111', '06079', '06069', '06083', '06047', '06027', '06029', '06039', '06043', '06053']",Santa Rosa Rancheria Tachi Yokut Tribe                                                ,,2000,     1994 ,          140000 ,          2021 ,120.0,  60000000,86,CA,Tachi Palace Hotel and Casino
3400 CA-246 Santa Ynez CA 93460                    ,34.60979402702703,-120.08701927027028,"['06079', '06083']                                                                                                             ","['06111', '06019', '06037', '06029', '06031', '06107', '06053']",Santa Ynez Band of Chumash Mission Indians of the Santa Ynez Reservation              ,,2300,     2004 ,          115000 ,          2016 ,120.0, 160000000,87,CA,Chumash Casino and Resort Enterprises
100 Kawi Pl Willits CA 95490                       ,39.39293515,-123.36279330995276,"['06033', '06045']                                                                                                             ","['06055', '06023', '06097', '06011', '06101', '06007', '06021', '06089', '06113', '06041', '06103', '06105']",Sherwood Valley Rancheria                                                             ,,220,     1987 ,            5000 ,               ,6.6,          ,88,CA,Sherwood Valley Rancheria Casino
1 Red Hawk Pkwy Placerville CA 95667               ,38.6966,-120.9077,"['06005', '06057', '06009', '06077', '06061', '06017', '06067']                                                                ","['06055', '06091', '06035', '06063', '06051', '06115', '06099', '32019', '06013', '06043', '06109', '32031', '32510', '32005', '06001', '06101', '06021', '32029', '06095', '06011', '06007', '06047', '06085', '06113', '06003']",Shingle Springs Band of Miwok Indians                                                 ,,2300,     2008 ,           88000 ,          2022 ,100.0,          ,89,CA,Red Hawk Casino
22777 Soboba Rd San Jacinto CA 92583               ,33.796501523620094,-116.92877180662455,"['06073', '06071', '06065']                                                                                                    ","['06037', '06025', '06059', '06029']",Soboba Band of Luiseno Indians                                                        ,,2200,     1995 ,           90000 ,          2019 ,168.0, 218000000,90,CA,Soboba Casino
900 Skyline Rd Susanville CA 96130                 ,40.430568050000005,-120.65759315378897,"['06063', '06035']                                                                                                             ","['06091', '32027', '06061', '06057', '32029', '06115', '06103', '06017', '06093', '06007', '32013', '06049', '06089', '32031', '32510']",Susanville Indian Rancheria                                                           ,,250,     1996 ,           26000 ,          2003 ,28.5,          ,91,CA,Diamond Mountain Casino
5469 Casino Way El Cajon CA 92019                  ,32.785800050000006,-116.82932411885754,['06073']                                                                                                                        ,"['06065', '06025', '06071', '06059']",Sycuan Band of the Kumeyaay Nation                                                    ,,2000,     1990 ,          260000 ,          2019 ,106.8, 305000000,92,CA,Sycuan Resort & Casino
17275 N Friant Rd Friant CA 93626                  ,36.98591255,-119.71463710160774,"['06019', '06047', '06039', '06043']                                                                                           ","['06079', '06069', '06051', '06027', '06009', '06029', '06077', '06031', '06109', '06053', '06099', '06107', '06003']",Table Mountain Rancheria                                                              ,,2400,     1987 ,          110000 ,          2022 ,7.8, 500000000,93,CA,Table Mountain Casino Resort
12559 US-101 Smith River CA 95567                  ,41.9322013,-124.1557628,"['41033', '41015', '06015']                                                                                                    ","['06093', '06023', '41011', '41029', '41019', '06105']",Tolowa Dee-ni' Nation                                                                 ,,300,     1996 ,           45000 ,               ,17.1,          ,94,CA,Lucky 7 Casino
3095 CA-86 Salton City CA 92275                    ,33.2882661,-115.9708534,"['06073', '06025', '06065']                                                                                                    ","['04012', '06071', '04027']",Torres Martinez Desert Cahuilla Indians                                               ,,400,     2007 ,           14000 ,               ,17.7,          ,95,CA,Red Earth Casino
1850 West St Porterville CA 93257                  ,36.03115830612245,-119.0767322244898,"['06107', '06029']                                                                                                             ","['06111', '06079', '06019', '06037', '06083', '06027', '06039', '06031', '06053']",Tule River Indian Tribe of the Tule River Reservation                                 ,,1750,     2021 ,          105000 ,          2023 ,3.2, 200000000,96,CA,Eagle Mountain Casino
19400 Tuolumne Rd N Tuolumne CA 95379              ,37.9735364,-120.2398191,"['06047', '06009', '06043', '06099', '06109']                                                                                  ","['06001', '06019', '06051', '06061', '06057', '06077', '06039', '06095', '32021', '32029', '06067', '32019', '06017', '06005', '06013', '06069', '06085', '06113', '32031', '32510', '32005', '06003']",Tuolumne Band of Me-Wuk Indians of the Tuolumne Rancheria                             ,,1174,     2005 ,           50000 ,          2009 ,9.0, 160000000,97,CA,Black Oak Casino Resort
73829 Baseline Rd Twentynine Palms CA 92277        ,34.12111932955288,-116.0511209334315,"['06071', '06065']                                                                                                             ","['06073', '06025', '06059']",Twenty Nine Palms Band of Mission Indians                                             ,,490,     2014 ,           30000 ,               ,15.1,  10400000,98,CA,Tortoise Rock Casino
1200 Athens Ave Lincoln CA 95648                   ,38.8403664,-121.31373658725462,"['06057', '06115', '06101', '06113', '06061', '06017', '06067']                                                                ","['06055', '06091', '06035', '06063', '06099', '06005', '06033', '06013', '06109', '32031', '32510', '32005', '06001', '06097', '06021', '06077', '06095', '06009', '06103', '06011', '06007', '06085', '06041', '06003']",United Auburn Indian Community of the Auburn Rancheria                                ,,3500,     2003 ,          250000 ,               ,14.0, 130000000,99,CA,Thunder Valley Casino
5000 Willows Rd Alpine CA 91901                    ,32.84226475,-116.70578495635328,['06073']                                                                                                                        ,"['06065', '06025', '06071', '06059']",Viejas Band of Kumeyaay Indians                                                       ,,2500,     1991 ,          133000 ,          2013 ,193.8, 800000000,100,CA,Viejas Casino
1 Sky River Pkwy Elk Grove CA 95757                ,38.38033865,-121.36938238436278,"['06005', '06013', '06101', '06113', '06009', '06095', '06077', '06061', '06017', '06067']                                     ","['06055', '06091', '06063', '06057', '06115', '06099', '06033', '06081', '06087', '06043', '06109', '06001', '06097', '06075', '06021', '06011', '06007', '06069', '06047', '06085', '06041', '06003']",Wilton Rancheria                                                                      ,,2100,     2022 ,          100000 ,               ,3.1, 400000000,101,CA,Sky River Casino
14455 CA-16 Brooks CA 95606                        ,38.7365093,-122.1430966,"['06033', '06055', '06101', '06113', '06095', '06011']                                                                         ","['06091', '06001', '06097', '06075', '06063', '06021', '06061', '06057', '06077', '06067', '06045', '06115', '06009', '06099', '06103', '06017', '06005', '06081', '06013', '06007', '06085', '06041']",Yocha DeHe Wintun Nation                                                              ,,2300,     1993 ,           74270 ,          2002 ,220.0,          ,102,CA,Cache Creek Casino Resort
777 San Manuel Blvd S Highland CA 92346            ,34.15068035,-117.22940545314115,"['06071', '06065']                                                                                                             ","['06111', '06025', '06037', '06059', '06029', '06073']",Yuhaaviatam of San Manuel Nation                                                      ,,7200,     1994 ,          290000 ,          2021 ,89.5, 720000000,103,CA,Yaamava' Resort & Casino at San Manuel
171 Klamath Blvd Klamath CA 95548                  ,41.5294502,-124.03931219250586,"['06023', '06093', '06015']                                                                                                    ","['41011', '41029', '41019', '41033', '41015', '06105']",Yurok Tribe of the Yurok Reservation                                                  ,,125,     2014 ,            3700 ,          2024 ,8.6,  15000000,104,CA,Redwood Hotel Casino
14324 CO-172 Ignacio CO 81137                      ,37.1216081,-107.6341667,"['35039', '35045', '08053', '08007', '08067']                                                                                  ","['08111', '08079', '08021', '08033', '08109', '08085', '49037', '35031', '04001', '35043', '08091', '08051', '08083', '08113', '08105']",Southern Ute Indian Tribe                                                             ,,500,     2008 ,           45000 ,               ,1.9,  17500000,105,CO,Sky Ute Casino Resort
3 Weeminuche Dr Towaoc CO 81334                    ,37.2046236,-108.6853093,"['08083', '35045', '04001', '08033', '49037', '08067']                                                                         ","['49019', '08111', '08091', '08085', '08007', '35031', '08077', '04017', '35039', '08053', '08113']",Ute Mountain Ute Tribe                                                                ,,700,     1992 ,           60000 ,          2004 ,8.5,   5500000,106,CO,Ute Mountain Casino
350 Trolley Line Blvd Mashantucket CT 06338        ,41.4717228,-71.9576205,"['36103', '09007', '09011', '44009', '44007', '09013', '44003', '09015']                                                       ","['33011', '25011', '25007', '25017', '25023', '09003', '25013', '25015', '09001', '25025', '25009', '33005', '09005', '25005', '25027', '44001', '50025', '09009', '33015', '44005', '25001', '25003', '25021']",Mashantucket Pequot Indian Tribe                                                      ,,5500,     1992 ,          344000 ,          2005 ,91.0, 700000000,107,CT,Foxwoods Resort & Casino
1 Mohegan Sun Blvd Uncasville CT 06382             ,41.49236055,-72.08971323978389,"['36103', '09007', '09011', '44009', '44007', '09013', '44003', '09015', '09003']                                              ","['33011', '25011', '25007', '25017', '25023', '36119', '25013', '36027', '25015', '09001', '25025', '36079', '25009', '33005', '09005', '25005', '25027', '44001', '50025', '09009', '44005', '25001', '25003', '25021']",Mohegan Tribe of Indians of Connecticut                                               ,,6500,     1996 ,          364000 ,          2016 ,598.96, 600000000,108,CT,Mohegan Sun Casino
500 SW 177th Ave Miami FL 33194                    ,25.7634818,-80.48456225449016,"['12086', '12087', '12021', '12011']                                                                                           ","['12085', '12093', '12043', '12051', '12099', '12071', '12111']",Miccosukee Tribe of Indians of Florida                                                ,,1800,     1999 ,           70000 ,          2024 ,21.1,  45000000,109,FL,Miccosukee Resort & Gaming
5223 Orient Rd Tampa FL 33610                      ,27.9627994,-82.3729934,"['12057', '12105', '12101', '12081', '12103']                                                                                  ","['12015', '12083', '12053', '12017', '12127', '12071', '12069', '12117', '12119', '12097', '12055', '12093', '12027', '12043', '12049', '12051', '12075', '12115', '12095']",Seminole Tribe of Florida                                                             ,128000.0,5000,     2000 ,          190000 ,          2019 ,237.7, 519000000,110,FL,Seminole Hard Rock Hotel & Casino - Tampa
1215 7th St Okeechobee FL 34974                    ,27.249802,-80.86961479797979,"['12055', '12093', '12097', '12111', '12099', '12061', '12051', '12043', '12085']                                              ","['12015', '12011', '12105', '12081', '12027', '12049', '12086', '12057', '12127', '12071', '12069', '12021', '12117', '12115', '12095', '12009', '12087']",Seminole Tribe of Florida                                                             ,128000.0,400,     1980 ,           27000 ,          2025 ,34.2,          ,111,FL,Seminole Indian Casino - Brighton
5550 NW 40th St Coconut Creek FL 33073             ,26.278344346753748,-80.19955750019322,"['12086', '12099', '12011']                                                                                                    ","['12085', '12061', '12093', '12043', '12051', '12071', '12021', '12111', '12055', '12087']",Seminole Tribe of Florida                                                             ,128000.0,2400,     2000 ,           24000 ,          2012 ,72.0, 120000000,112,FL,Seminole Indian Casino - Coconut Creek
506 S 1st St Immokalee FL 34142                    ,26.425519,-81.417559,"['12071', '12021', '12051', '12015', '12043']                                                                                  ","['12085', '12011', '12105', '12061', '12093', '12081', '12027', '12049', '12099', '12086', '12057', '12111', '12115', '12097', '12055', '12087']",Seminole Tribe of Florida                                                             ,128000.0,1400,     1994 ,           51000 ,          2009 ,95.7,          ,113,FL,Seminole Indian Casino - Immokalee
1 Seminole Way Hollywood FL 33314                  ,26.0530739,-80.2077538,"['12086', '12099', '12011']                                                                                                    ","['12085', '12093', '12043', '12051', '12071', '12021', '12111', '12055', '12087']",Seminole Tribe of Florida                                                             ,128000.0,2500,     1979 ,          140000 ,          2019 ,28.0,1500000000,114,FL,Seminole Hard Rock Hotel & Casino - Hollywood
1314 15th St Onawa IA 51040                        ,42.0207935,-96.10555217352125,"['31177', '19047', '19133', '31021', '31173', '31043', '19193', '19085']                                                       ","['19151', '19059', '19161', '19071', '46083', '31109', '31179', '31055', '31025', '19165', '46135', '31023', '31039', '19093', '19141', '31051', '46027', '19041', '19025', '31053', '46127', '19145', '19029', '31167', '31027', '19027', '19035', '31131', '31155', '31119', '19137', '31037', '19021', '31159', '19167', '31141', '19155', '31139', '31143', '19009', '19119', '19077', '46125', '31153', '31107', '19129', '19143', '19149']",Omaha Tribe of Nebraska                                                               ,,400,     1992 ,           10000 ,          2009 ,16.9,   8000000,115,IA,Blackbird Bend Casino
1504 305th St Tama IA 52339                        ,41.99700623665316,-92.66347940749552,"['19083', '19075', '19127', '19171', '19095', '19099', '19157', '19013', '19011']                                              ","['19051', '19177', '19169', '19081', '19017', '19039', '19067', '29197', '19113', '19115', '29199', '19179', '19191', '19031', '19139', '19117', '19023', '19079', '19015', '19185', '19019', '19037', '19123', '19195', '19043', '19131', '19101', '19049', '19053', '19033', '19197', '19183', '19187', '19153', '19065', '19107', '19007', '19069', '19103', '19105', '19121', '19181', '19135', '19087', '29171', '19089', '19055', '19125']",Sac & Fox Tribe of the Mississippi in Iowa                                            ,,1350,     1992 ,           67553 ,          2019 ,11.0, 100000000,116,IA,Meskwaki Bingo Casino Hotel
Sloan IA 51055                                     ,42.2330049,-96.2279425,"['46127', '19133', '31039', '31021', '31173', '19149', '31043', '19193', '19085']                                              ","['19151', '19059', '19161', '19047', '19071', '46083', '31109', '31179', '31055', '31025', '19165', '46135', '31023', '19093', '19141', '31051', '46027', '19041', '19025', '31053', '27133', '27105', '19029', '31167', '31027', '19027', '31131', '31155', '31119', '31177', '19137', '31037', '19021', '31159', '19167', '46099', '46125', '31141', '19155', '31139', '31143', '19009', '19119', '19035', '31153', '31107', '19129', '19143']",Winnebago Tribe of Nebraska                                                           ,,850,     1992 ,           54343 ,          2023 ,12.0,   1000000,117,IA,WinnaVegas Casino
Worley ID 83876                                    ,47.400736,-116.917124,"['53075', '16009', '53063', '16055', '16057']                                                                                  ","['16069', '16021', '30061', '53013', '53065', '16017', '30089', '41063', '16049', '53051', '16079', '53043', '16061', '16035', '53023', '53003', '30053', '53001']",Coeur d'Alene Tribe                                                                   ,,2000,     1993 ,          100000 ,          2011 ,6.5,  85000000,118,ID,Coeur d'Alene Casino Resort/Hotel
7169 Plaza St Bonners Ferry ID 83805               ,48.6970607,-116.3087954,"['30053', '16021', '16017']                                                                                                    ","['30061', '53063', '30089', '30029', '16079', '53051', '16055', '16009', '53065']",Kootenai Tribe of Idaho                                                               ,,500,     1986 ,           30000 ,          2005 ,18.9,          ,119,ID,Kootenai River Inn Casino and Spa
4918 Hatwai Road Lewiston ID 83501                 ,46.4363474,-116.960528095,"['16061', '16069', '53075', '53023', '53003', '16057']                                                                         ","['16003', '41059', '53013', '53063', '41063', '41061', '53021', '16049', '16079', '53071', '16055', '53043', '16009', '41001', '16035', '53001']",Nez Perce Tribe                                                                       ,,1200,     2003 ,           80000 ,               ,13.9,          ,120,ID,Clearwater River Casino & Lodge
419 3rd St Kamiah ID 83536                         ,46.2305645,-116.0180918,"['16061', '16035', '16069', '16049']                                                                                           ","['16003', '16059', '30061', '30089', '41063', '53075', '16079', '16055', '16085', '16009', '41001', '16057', '53023', '53003', '30063']",Nez Perce Tribe                                                                       ,,110,     2001 ,            6000 ,               ,7.8,          ,121,ID,It'Se Ye-Ye Casino
845 McKinley Ave Pocatello ID 83201                ,42.89046285714286,-112.45644824489796,"['16029', '16071', '16011', '16077', '16005']                                                                                  ","['16059', '16041', '16067', '49003', '49005', '16033', '16019', '16051', '16065', '16037', '16031', '16007', '16063', '16023', '16013', '49033', '16043', '56023', '16081']",Shoshone-Bannock Tribes                                                               ,1100.0,60,     1990 ,            2700 ,               ,3.5,          ,122,ID,Bannock Peak Casino
Pocatello ID 83202                                 ,42.8620287,-112.450627,"['16029', '16071', '16011', '16077', '16005']                                                                                  ","['16059', '16041', '16067', '49003', '49005', '16033', '16019', '16051', '16065', '16037', '16031', '16007', '16063', '16023', '16013', '49033', '16043', '56023', '16081']",Shoshone-Bannock Tribes                                                               ,1100.0,900,     2012 ,           72984 ,          2019 ,39.1, 311000000,123,ID,Shoshone-Bannock Casino
843 North US-91 Blackfoot ID 83221                 ,43.1997545,-112.3325255,"['16029', '16051', '16019', '16011', '16077', '16005']                                                                         ","['56039', '49003', '16033', '16065', '16031', '16023', '56023', '16081', '16059', '16041', '16067', '16071', '16037', '16007', '16063', '30001', '16013', '16043', '49005']",Shoshone-Bannock Tribes                                                               ,1100.0,100,     2018 ,           13200 ,               ,3.5,          ,124,ID,Sage Hill Travel Center & Casino
3000 Prairie Ave South Bend IN 46614               ,41.644719,-86.291099,"['18099', '18085', '18091', '26159', '26027', '18141', '18149', '18039', '26021']                                              ","['26081', '18033', '18023', '17197', '18131', '18151', '18113', '18017', '18067', '26015', '18089', '18057', '26139', '17075', '18073', '18007', '18015', '18087', '18181', '26077', '18095', '18179', '18111', '26149', '26045', '26005', '17091', '18169', '18171', '18159', '18009', '18157', '18001', '17031', '18069', '18127', '26025', '18003', '18183', '18103', '26023', '18049', '18053']",Pokagon Band of Potawatomi Indians of Michigan and Indiana                            ,,2250,     2018 ,          175000 ,          2022 ,120.1160542, 400000000,125,IN,Four Winds Casino South Bend
White Cloud KS 66094                               ,39.9763876,-95.2969223,"['29087', '20085', '20043', '29005', '29021', '20013', '31127', '29147', '20005', '31147', '29003']                            ","['20059', '19071', '20091', '31067', '20087', '19159', '20177', '20197', '31109', '31055', '29177', '31025', '19001', '19173', '20103', '31097', '20131', '29165', '29061', '31133', '20161', '29075', '20045', '29025', '29063', '19029', '19145', '20139', '20209', '19053', '31131', '20117', '19137', '29037', '29227', '19003', '19155', '20149', '29049', '19175', '29081', '29047', '31153', '20121', '19129', '20111', '29095']",Iowa Tribe of Kansas and Nebraska                                                     ,,380,     1998 ,           21000 ,               ,4.0,          ,126,KS,Casino White Cloud
134 West 8th Street Horton KS                      ,39.66026095,-95.5283414731722,"['29087', '20085', '20043', '20087', '29021', '20013', '20131', '20005', '31147', '20103']                                     ","['20059', '20061', '19071', '20091', '31067', '19159', '20177', '20197', '31109', '20107', '20127', '31127', '29177', '31025', '31095', '19173', '31097', '29165', '29061', '31133', '20161', '29075', '29147', '20045', '29025', '29063', '20027', '19145', '29003', '29005', '20003', '20139', '20209', '31131', '20117', '20017', '19137', '29037', '20031', '29227', '19003', '20149', '29049', '20201', '29081', '29047', '31153', '20121', '19129', '20111', '29095']",Kickapoo Tribe of Indians of the Kickapoo Reservation in Kansas                       ,,400,     1996 ,           45000 ,               ,12.6,          ,127,KS,Golden Eagle Casino
Mayetta KS 66509                                   ,39.338885,-95.722483,"['20149', '20085', '20087', '20013', '20045', '20177', '20131', '20005', '20197']                                              ","['20059', '20061', '19071', '20091', '31067', '20107', '31109', '20073', '20127', '31127', '29013', '31095', '20103', '31097', '29165', '31133', '20161', '29075', '29147', '29063', '20001', '20027', '19145', '29003', '29005', '20003', '20139', '20209', '31131', '20117', '20017', '29037', '20031', '29021', '29087', '29049', '20201', '31147', '20043', '20115', '20041', '20207', '29047', '20121', '20111', '29095']",Prairie Band of Potawatomi Nation                                                     ,,1200,     1998 ,           35000 ,          2019 ,65.0, 130000000,128,KS,Prairie Band Casino & Resort
832 Martin Luther King Rd Charenton LA 70523       ,29.87146518615017,-91.5374768205985,"['22047', '22099', '22045', '22109', '22101', '22007']                                                                         ","['22105', '28005', '22091', '22055', '22095', '22121', '22009', '22113', '22037', '22005', '22125', '22039', '22097', '22051', '22025', '28157', '22001', '22089', '22053', '22057', '22103', '22077', '22023', '22093', '22079', '22071', '22063', '22003', '28001', '22029', '22019', '22033']",Chitimacha Tribe of Louisiana                                                         ,,1000,     1993 ,          180000 ,          2012 ,66.0,  20000000,129,LA,Cypress Bayou Casino
777 Coushatta Dr Kinder LA 70648                   ,30.54588775,-92.81442419479612,"['22001', '22011', '22053', '22079', '22097', '22115', '22003', '22019', '22039']                                              ","['22031', '22055', '22121', '22009', '22113', '48405', '22101', '22125', '48457', '22025', '28157', '48361', '22069', '48005', '22077', '22023', '22081', '48245', '22099', '22059', '22045', '22085', '22047', '48241', '22043', '28001', '22127', '48403', '22029', '48199', '48351']",Coushatta Tribe of Louisiana                                                          ,,2000,     1995 ,          100000 ,          2024 ,336.0, 150000000,130,LA,Coushatta Casino Resort
1571 North 2nd Street Jena LA                      ,31.68665945,-92.13089134705255,"['22009', '22029', '22079', '22025', '22043', '22127', '22041', '22021', '22059']                                              ","['28029', '28005', '22013', '22035', '22061', '22011', '22123', '22111', '28085', '22031', '22107', '22049', '22055', '22121', '05003', '22027', '22037', '28021', '22115', '22017', '22125', '22039', '22097', '22015', '05139', '22119', '22001', '28157', '22053', '22069', '22077', '22081', '22099', '22083', '28149', '28037', '28055', '22073', '22085', '28063', '22003', '22047', '28001', '22067', '22065', '22033']",Jena Band of Choctaw Indians                                                          ,0.0,40,     1998 ,            3000 ,               ,1.0,          ,131,LA,Miko's Gaming
148 Red Oak Lane Grant Parish LA 71477             ,31.4347766,-92.4983568803518,"['22009', '22069', '22079', '22115', '22043', '22127', '22059']                                                                ","['28005', '22013', '22061', '22011', '22111', '22041', '22031', '22107', '22049', '22055', '22121', '22113', '22027', '22037', '28021', '22017', '22125', '22039', '22021', '22097', '22015', '22025', '22119', '22001', '28157', '22053', '22023', '22077', '22081', '48419', '22099', '22083', '28037', '22073', '22085', '28063', '22003', '22047', '48241', '28001', '22067', '48403', '22029', '22019', '22065', '22033', '48351']",Jena Band of Choctaw Indians                                                          ,0.0,600,     2013 ,           46000 ,               ,66.8,          ,132,LA,Choctaw Pines Casino
141 South Washington Street Marksville LA 71351    ,31.1253041,-92.06657644106498,"['22009', '22029', '28001', '22079', '22097', '22025', '22043', '22077', '22125', '22059', '22039']                            ","['28029', '28005', '22013', '22061', '22011', '22091', '28085', '22041', '22107', '22049', '22055', '22121', '22113', '22101', '22037', '28021', '22115', '22005', '22021', '28157', '22001', '22053', '22069', '22023', '22081', '22099', '22045', '28149', '22083', '28037', '22063', '22073', '22085', '28063', '22003', '22007', '22047', '22067', '22127', '22019', '22065', '22033', '48351']",Tunica-Biloxi Indian Tribe of Louisiana                                               ,,1000,     1994 ,           72000 ,          2023 ,15.0,          ,133,LA,Paragon Casino & Resort
11386 W Lakeshore Dr Brimley MI 49715              ,46.4226468,-84.60206142441425,"['26033', '26097']                                                                                                             ","['26031', '26153', '26119', '26137', '26141', '26007', '26047', '26095', '26029', '26003', '26009']",Bay Mills Indian Community                                                            ,,600,     1995 ,           17000 ,          2022 ,92.8, 100000000,134,MI,Bay Mills Resort & Casino
7741 M-72 Williamsburg MI 49690                    ,44.77402365,-85.42179215258386,"['26055', '26089', '26165', '26079', '26019', '26009', '26029', '26113']                                                       ","['26039', '26127', '26073', '26047', '26119', '26133', '26057', '26121', '26031', '26041', '26117', '26135', '26111', '26129', '26107', '26153', '26097', '26051', '26033', '26143', '26101', '26105', '26123', '26137', '26035', '26141', '26011', '26085']",Grand Traverse Band of Ottawa and Chippewa Indians                                    ,,1600,     1996 ,           56000 ,          2008 ,5.0, 160000000,135,MI,Turtle Creek Casino
118 West First Street Suttons Bay MI 49682         ,44.97426245,-85.6546697284343,"['26055', '26089', '26079', '26019', '26009', '26029']                                                                         ","['26039', '26127', '26073', '26047', '26119', '26095', '26133', '26031', '26041', '26135', '26113', '26129', '55029', '26107', '26153', '26097', '26051', '26033', '26143', '26165', '26101', '26105', '26123', '26137', '26035', '26141', '26085']",Grand Traverse Band of Ottawa and Chippewa Indians                                    ,,350,     1991 ,           30000 ,          2013 ,16.0,   2500000,136,MI,Leelanau Sands Casino
W 399 US-2 Harris MI 49845                         ,45.70294435,-87.3374138652576,"['26041', '26103', '26043', '26109']                                                                                           ","['55061', '26089', '55029', '26153', '55041', '55067', '26071', '55071', '55009', '55087', '55083', '55037', '55115', '55075', '26013', '55078', '26003']",Hannahville Indian Community                                                          ,,1150,     1985 ,           55000 ,          2017 ,60.0,  80000000,137,MI,Island Resort & Casino
203 Michigan Ave Baraga MI 49908                   ,46.77940308235294,-88.49386664705882,"['26103', '26013', '26071', '26061', '26131']                                                                                  ","['26053', '26109', '55085', '55125', '55083', '55041', '26083', '55037', '55067', '26041', '26043', '55075', '26003']",Keweenaw Bay Indian Community                                                         ,,300,     1990 ,           17000 ,          2016 ,47.1,   6500000,138,MI,Ojibwa Casino II
105 Acre Trail Marquette MI 49855                  ,46.47930926530612,-87.2426432244898,"['26041', '26103', '26003']                                                                                                    ","['55029', '26109', '26061', '26153', '26097', '55041', '26083', '26043', '26095', '26071', '55037', '55075', '26013']",Keweenaw Bay Indian Community                                                         ,,500,     1985 ,           67000 ,          2019 ,9.6,  40000000,139,MI,Ojibwa Casino and Resort - Marquette
N5384 US-45 Watersmeet MI 49969                    ,46.2767826,-89.1776948,"['26053', '26071', '55085', '26061', '26131', '55125', '55041']                                                                ","['26103', '55069', '26109', '55083', '55099', '26013', '26083', '55037', '55003', '26043', '55115', '55067', '55075', '55051', '55119', '55078', '55073']",Lac Vieux Desert Tribe                                                                ,,495,     1998 ,           25000 ,          2008 ,20.5,  19000000,140,MI,Northern Waters Casino Resort
2700 Orchard Hwy Manistee MI 49660                 ,44.2858293,-86.2469730672838,"['26165', '26019', '26101', '26105', '26085']                                                                                  ","['26113', '55061', '26039', '26089', '26081', '55029', '26107', '26127', '26073', '26143', '26079', '26029', '26139', '26055', '55071', '26133', '26121', '26123', '26035', '26041', '26117', '26009']",Little River Band of Ottawa Indians                                                   ,,1100,     1999 ,           70000 ,          2016 ,9.6,  55000000,141,MI,Little River Casino
1080 S Nicolet St Mackinaw City MI 49701           ,45.76761021428571,-84.73197174489796,"['26033', '26097', '26031', '26047']                                                                                           ","['26113', '26039', '26089', '26129', '26153', '26143', '26079', '26119', '26095', '26001', '26055', '26029', '26165', '26137', '26141', '26007', '26135', '26003', '26009']",Little Traverse Bay Band of Odawa Indians                                             ,,200,     2016 ,            5000 ,               ,30.0,   3200000,142,MI,Odawa Casino Mackinaw City
1444 US-131 Petoskey MI 49770                      ,45.36170957909764,-84.97095452098179,"['26137', '26009', '26031', '26029', '26047']                                                                                  ","['26113', '26039', '26019', '26089', '26129', '26153', '26097', '26051', '26033', '26143', '26079', '26119', '26095', '26001', '26055', '26069', '26133', '26165', '26101', '26035', '26141', '26007', '26011', '26135', '26085']",Little Traverse Bay Band of Odawa Indians                                             ,,1000,     2007 ,           50000 ,               ,500.0,          ,143,MI,Odawa Casino Resort
1123 129th Ave Wayland MI 49348                    ,42.6303661,-85.6612775,"['26015', '26159', '26077', '26067', '26005', '26025', '26081', '26139']                                                       ","['18039', '18033', '26127', '18151', '26145', '18113', '26155', '18141', '26073', '26133', '26057', '26121', '26059', '26091', '18087', '26117', '18091', '26111', '26107', '26149', '26045', '26021', '18099', '18149', '26105', '26027', '39171', '26065', '18003', '26075', '26035', '26123', '18183', '26023', '26037', '26085', '18085']",Match-E-Be-Nash-She-Wish Band of Potawatomi Indians                                   ,,2500,     2011 ,          156000 ,          2021 ,45.0, 400000000,144,MI,Gun Lake Casino
11177 E Michigan Ave Battle Creek MI 49014         ,42.3133591,-85.1695841,"['26015', '26023', '26149', '26045', '26077', '26005', '26025', '26059']                                                       ","['18039', '26081', '18033', '26161', '39137', '26127', '26145', '18113', '26155', '18151', '18141', '26073', '39069', '26139', '39125', '26057', '26121', '26091', '18087', '26117', '26159', '39095', '26093', '26111', '39039', '26107', '18179', '26049', '26021', '18099', '18169', '39161', '39051', '18001', '26115', '26027', '18069', '39171', '26065', '18003', '26067', '26075', '26123', '18183', '26037', '18085']",Nottawaseppi Huron Band of Potawatomi                                                 ,,2680,     2009 ,          107000 ,          2012 ,20.2, 300000000,145,MI,Firekeepers
Dowagiac MI 49047                                  ,41.9824681,-86.1088809,"['26159', '26027', '26149', '18141', '26077', '18039', '26021']                                                                ","['26081', '18033', '18151', '18131', '18113', '18017', '18067', '26015', '18089', '26139', '26121', '26059', '18073', '18015', '18087', '18181', '26117', '18091', '39039', '18179', '18111', '26045', '26005', '18099', '18169', '18149', '17031', '18069', '18127', '39171', '26067', '18003', '26025', '26075', '26123', '18183', '18103', '26023', '18049', '18053', '18085']",Pokagon Band of Potawatomi Indians of Michigan and Indiana                            ,,404,     2013 ,           12000 ,               ,21.56750484,          ,146,MI,Four Winds Casino Dowagiac
68600 Red Arrow Hwy Hartford MI 49057              ,42.19891788888889,-86.21155291919192,"['26159', '26027', '26005', '26021']                                                                                           ","['18039', '26081', '18033', '26127', '18131', '18151', '18113', '18017', '18089', '18141', '26015', '26139', '26121', '26059', '18073', '18087', '18181', '26117', '18091', '26077', '26107', '26149', '18111', '26045', '18099', '18169', '18149', '17031', '18069', '18127', '26067', '26025', '18003', '26123', '18183', '18103', '26023', '18049', '18085']",Pokagon Band of Potawatomi Indians of Michigan and Indiana                            ,,550,     2011 ,           52000 ,               ,29.36170213,  40000000,147,MI,Four Winds Hartford
11111 Wilson Rd New Buffalo MI 49117               ,41.770101715447154,-86.72216945528454,"['18099', '18091', '18141', '18149', '18127', '26021']                                                                         ","['18039', '26081', '18023', '17197', '18131', '18113', '18017', '18067', '26015', '18089', '26139', '26121', '17075', '18073', '18007', '18015', '18087', '18181', '17097', '55059', '26159', '26077', '26149', '18111', '55101', '26005', '17091', '18169', '18171', '18157', '17031', '26027', '18069', '17043', '18183', '18103', '26023', '18049', '18053', '18085']",Pokagon Band of Potawatomi Indians of Michigan and Indiana                            ,,3000,     2007 ,          130000 ,          2011 ,160.1547389, 200000000,148,MI,Four Winds Casino Resort
6800 Soaring Eagle Blvd Mt Pleasant MI 48858       ,43.60840435,-84.71299056472051,"['26051', '26133', '26035', '26117', '26073', '26057', '26111', '26145', '26107']                                              ","['26039', '26019', '26081', '26161', '26127', '26155', '26015', '26017', '26119', '26139', '26001', '26055', '26069', '26121', '26125', '26157', '26135', '26093', '26009', '26113', '26077', '26129', '26049', '26045', '26005', '26143', '26079', '26165', '26101', '26105', '26067', '26065', '26025', '26123', '26137', '26075', '26063', '26087', '26011', '26037', '26085']",Saginaw Chippewa Indian Tribe of Michigan                                             ,,4400,     1997 ,          210000 ,          2011 ,200.0, 180000000,149,MI,Soaring Eagle Casino & Resort
2690 Worth Rd Standish MI 48658                    ,43.9248331,-83.9499025,"['26051', '26017', '26011', '26069', '26111', '26129', '26145', '26157']                                                       ","['26039', '26147', '26155', '26073', '26119', '26029', '26001', '26133', '26057', '26031', '26125', '26007', '26117', '26099', '26135', '26093', '26009', '26113', '26151', '26107', '26049', '26045', '26143', '26079', '26165', '26067', '26065', '26137', '26035', '26087', '26063', '26141', '26037']",Saginaw Chippewa Indian Tribe of Michigan                                             ,,800,     2007 ,           32000 ,          2019 ,11.6, 100000000,150,MI,Saganing Eagle's Landing Casino
2061 North Three Mile Road MI 49745                ,46.03632915,-84.42890005000001,"['26033', '26097', '26031', '26047']                                                                                           ","['26039', '26089', '26095', '26153', '26137', '26135', '26141', '26007', '26079', '26119', '26029', '26001', '26009']",Sault Ste. Marie Tribe of Chippewa Indians of Michigan                                ,500.0,150,     1994 ,            6400 ,          2023 ,33.0,   5000000,151,MI,Kewadin Casino Hessel
2186 Shunk Rd.Sault Ste. Marie MI 49783            ,46.4748054,-84.32525625930596,"['26033', '26097']                                                                                                             ","['26031', '26095', '26137', '26141', '26007', '26047', '26119', '26029']",Sault Ste. Marie Tribe of Chippewa Indians of Michigan                                ,500.0,2300,     1985 ,          210000 ,          2004 ,110.0, 300000000,152,MI,Kewadin Casino Hotel & Convention Center
5939 US 2 Manistique MI 49854                      ,45.953668,-86.247432,"['26097', '26041', '26003', '26153']                                                                                           ","['26101', '26103', '26019', '26089', '55029', '26109', '26033', '26043', '26047', '26079', '26095', '26029', '26055', '26009']",Sault Ste. Marie Tribe of Chippewa Indians of Michigan                                ,500.0,800,     1994 ,           10000 ,               ,53.5,          ,153,MI,Kewadin Casino Manistique
3015 Mackinac Trail St Ignace MI 49781             ,45.9290336,-84.7327477,"['26033', '26097', '26031', '26047']                                                                                           ","['26113', '26039', '26089', '26153', '26143', '26079', '26119', '26095', '26001', '26029', '26055', '26137', '26141', '26007', '26135', '26003', '26009']",Sault Ste. Marie Tribe of Chippewa Indians of Michigan                                ,500.0,700,     1987 ,           25000 ,               ,21.7,          ,154,MI,Kewadin Casino St. Ignace
N7727 Saint Nicholas Street Christmas MI 49862     ,46.4361308,-86.70105250209568,"['26041', '26103', '26003', '26153']                                                                                           ","['55029', '26089', '26109', '26097', '26083', '26043', '26071', '55075', '26095', '26029', '26013']",Sault Ste. Marie Tribe of Chippewa Indians of Michigan                                ,500.0,245,     1994 ,            8500 ,               ,3.108,          ,155,MI,Kewadin Casino Christmas
107 North 3rd Street Tower MN 55790                ,47.8071092,-92.2673742,['27137']                                                                                                                        ,"['27071', '27031', '55031', '27075', '27115', '27001', '55007', '27061', '27017']",Bois Forte Band of Minnesota Chippewa Tribe                                           ,,500,     1986 ,           25000 ,          2004 ,3.8,  13000000,156,MN,Fortune Bay Casino
1785 MN-210 Carlton MN 55718                       ,46.6658247,-92.47807272887306,"['27137', '55031', '27017', '27115']                                                                                           ","['55129', '27065', '27003', '27163', '27059', '27035', '55113', '55095', '27021', '27001', '27025', '27061', '27071', '27075', '55005', '55107', '55013', '27097', '27095', '55007']",Fond du Lac Band of Minnesota Chippewa Tribe                                          ,,1800,     1993 ,           67000 ,          2008 ,131.5, 128000000,157,MN,Black Bear Casino
129 E Superior St Duluth MN 55802                  ,46.7888757,-92.0962346,"['27075', '27137', '55031', '27017', '27115']                                                                                  ","['55129', '27065', '27031', '27095', '55005', '55107', '55113', '55003', '55013', '55095', '27025', '27001', '55007', '27061']",Fond du Lac Band of Minnesota Chippewa Tribe                                          ,,700,     1986 ,           20000 ,          2016 ,31.5,   6200000,158,MN,Fond du Luth Casino
70 Casino Dr Grand Portage MN 55605                ,47.9539145,-89.69189543914197,['27031']                                                                                                                        ,"['26053', '26061', '27075', '26083', '55003', '26131']",Grand Portage Band of Minnesota Chippewa Tribe                                        ,,450,     1975 ,           15000 ,          2018 ,28.8,   5000000,159,MN,Grand Portage Casino
Bena MN 56626                                      ,47.340669,-94.207415,"['27061', '27021', '27007']                                                                                                    ","['27065', '27035', '27153', '27077', '27159', '27137', '27001', '27017', '27071', '27029', '27119', '27087', '27097', '27111', '27005', '27095', '27057']",Leech Lake Band of Minnesota Chippewa Tribe                                           ,1000.0,25,     2023 ,                 ,               ,0.5,          ,160,MN,Big Winnie Bar
6268 Upper Cass Frontage Rd NW Cass Lake MN 56633  ,47.38312515696752,-94.6172157821658,"['27061', '27021', '27057', '27007']                                                                                           ","['27035', '27153', '27077', '27113', '27159', '27089', '27125', '27001', '27071', '27029', '27135', '27119', '27041', '27087', '27097', '27111', '27005', '27095']",Leech Lake Band of Minnesota Chippewa Tribe                                           ,1000.0,650,     1989 ,           22000 ,          2019 ,5.0,  45000000,161,MN,Cedar Lakes Casino & Hotel
7316 MN-371 Walker MN 56484                        ,47.0847006,-94.5697223,"['27061', '27021', '27159', '27035', '27057', '27007']                                                                         ","['27009', '27071', '27029', '27153', '27119', '27077', '27113', '27041', '27005', '27087', '27097', '27125', '27145', '27111', '27095', '27001', '27121']",Leech Lake Band of Minnesota Chippewa Tribe                                           ,1000.0,43,     2017 ,            9000 ,               ,1.0,   6285000,162,MN,Shingobee on the Bay
45830 US-2 Deer River MN 56636                     ,47.3343255,-93.7968975,"['27061', '27021', '27001']                                                                                                    ","['27065', '27153', '27035', '27077', '27159', '27137', '27007', '27017', '27071', '27029', '27115', '27097', '27005', '27095', '27057']",Leech Lake Band of Minnesota Chippewa Tribe                                           ,1000.0,300,     2000 ,           15480 ,               ,2.9,          ,163,MN,White Oak Casino
4656 MN-200 Walker MN 56484                        ,47.0847006,-94.5697223,"['27061', '27021', '27159', '27035', '27057', '27007']                                                                         ","['27009', '27071', '27029', '27153', '27119', '27077', '27113', '27041', '27005', '27087', '27097', '27125', '27145', '27111', '27095', '27001', '27121']",Leech Lake Band of Minnesota Chippewa Tribe                                           ,1000.0,1000,     1996 ,           46000 ,          2011 ,21.9,  30000000,164,MN,Northern Lights Casino
441 North Park Drive Morton MN 56270               ,44.5554098,-94.9839573,"['27023', '27129', '27127', '27015', '27173', '27103', '27067', '27033', '27093', '27143']                                     ","['27151', '27091', '19147', '27009', '19059', '27083', '27063', '27139', '27161', '19063', '27051', '27165', '27019', '27081', '27041', '27117', '27171', '19141', '27149', '27097', '19041', '27053', '27121', '27133', '27105', '27043', '27079', '27153', '27141', '27011', '27101', '27085', '19109', '19119', '27145', '27073', '19143', '27013']",Lower Sioux Indian Community in the State of Minnesota                                ,,1250,     1988 ,          325000 ,          2008 ,60.0,          ,165,MN,Jackpot Junction Casino Hotel
777 Lady Luck Dr Hinckley MN 55037                 ,46.00977743184835,-92.9014655247732,"['27001', '27059', '27017', '27065', '27115', '27025', '55095', '55013']                                                       ","['27009', '55129', '27003', '27163', '27035', '55113', '27139', '55109', '27061', '27037', '27019', '27075', '55107', '27171', '27097', '55007', '27053', '27123', '27049', '27141', '27021', '27137', '55093', '55031', '55005', '55033', '27145', '27095']",Mille Lacs Band of Ojibwe                                                             ,900.0,2144,     1992 ,           54800 ,          2024 ,5.3,          ,166,MN,Grand Casino Hinckley
777 Casino Drive Onamia MN 56359                   ,46.1793752,-93.75899554578328,"['27097', '27095', '27001', '27035', '27065', '27009']                                                                         ","['27003', '27163', '27059', '27139', '55109', '27061', '27037', '27019', '27041', '27171', '27093', '27115', '27121', '27053', '27123', '27153', '27159', '27141', '27021', '27137', '27025', '27017', '27007', '27085', '27067', '55013', '27145', '27111', '55095', '27057']",Mille Lacs Band of Ojibwe                                                             ,900.0,1269,     1991 ,           40000 ,          2024 ,450.3,          ,167,MN,Grand Casino Mille Lacs
151 Tyler Road North Red Wing MN 55066             ,44.5693219,-92.5828222,"['27163', '27157', '27109', '55091', '55093', '27049', '27039', '55109', '27037']                                              ","['55129', '27065', '27055', '27003', '27059', '27139', '27103', '19067', '27161', '19191', '55011', '19189', '55017', '27099', '27019', '27045', '27143', '55107', '55053', '27171', '27047', '27115', '55121', '27053', '19037', '19195', '27123', '55063', '27043', '27079', '19033', '27147', '27141', '27025', '27085', '27169', '55035', '55005', '55033', '27131', '55013', '27095', '19005', '55095', '19089', '19131', '27013']",Prairie Island Indian Community in the State of Minnesota                             ,,2400,     1989 ,          116000 ,          2015 ,86.0, 186000000,168,MN,Treasure Island Resort & Casino
10200 MN-89 Red Lake MN 56671                      ,47.7729778,-95.0037717,"['27029', '27057', '27007']                                                                                                    ","['27035', '27153', '27077', '27113', '27159', '27021', '27089', '27125', '27001', '27061', '27071', '27135', '27119', '27087', '27027', '27111', '27005', '27107']",Red Lake Band of Chippewa Indians                                                     ,6000.0,300,     2009 ,            9875 ,               ,79.0,  21000000,169,MN,Seven Clans Casino - Red Lake
101 Knight Avenue South Thief River Falls MN 56701 ,48.115991,-96.18468073520494,"['27089', '27119', '27125', '27135', '27113']                                                                                  ","['38067', '38099', '27069', '38017', '27029', '38035', '27077', '38097', '38091', '27087', '27027', '27007', '27111', '27005', '27107', '27057']",Red Lake Band of Chippewa Indians                                                     ,6000.0,650,     1993 ,           19222 ,          2019 ,8.3,  12000000,170,MN,Seven Clans Casino - Thief River Falls
202 Main Avenue Northeast Warroad MN 56763         ,48.90685705,-95.31756881839011,"['27077', '27135', '27007']                                                                                                    ","['27071', '27029', '27069', '27119', '27113', '27087', '27089', '27125', '27061']",Red Lake Band of Chippewa Indians                                                     ,6000.0,580,     2014 ,           82800 ,               ,18.2,  12400000,171,MN,Seven Clans Casino - Warroad
2400 Mystic Lake Blvd NW Prior Lake MN 55372       ,44.7305325,-93.47763904676214,"['27053', '27139', '27171', '27131', '27123', '27019', '27079', '27143', '27037', '27003']                                     ","['27009', '27091', '27065', '27163', '27059', '27103', '27161', '27001', '55109', '55011', '19189', '27165', '55091', '27099', '27045', '27047', '27093', '27115', '27097', '19195', '27109', '27049', '27129', '27043', '27147', '27039', '27141', '27025', '55093', '27085', '27157', '19109', '55005', '27015', '55033', '27067', '55013', '27145', '27127', '27095', '55095', '19131', '27013']",Shakopee Mdewakanton Sioux Community of Minnesota                                     ,1000000.0,4000,     1990 ,          125000 ,          2017 ,120.0, 190000000,172,MN,Mystic Lake Casino
2450 Sioux Trail NW Prior Lake MN 55372            ,44.73701755,-93.47418276659394,"['27053', '27139', '27171', '27131', '27123', '27019', '27079', '27143', '27037', '27003']                                     ","['27009', '27091', '27065', '27163', '27059', '27103', '27161', '27001', '55109', '55011', '19189', '27165', '55091', '27099', '27045', '27047', '27093', '27115', '27097', '19195', '27109', '27049', '27129', '27043', '27147', '27039', '27141', '27025', '55093', '27085', '27157', '19109', '55005', '27015', '55033', '27067', '55013', '27145', '27127', '27095', '55095', '19131', '27013']",Shakopee Mdewakanton Sioux Community of Minnesota                                     ,1000000.0,800,     2007 ,           25000 ,               ,11.2,  77000000,173,MN,Little Six Casino
Granite Falls MN 56241                             ,44.8099575,-95.5455752,"['27023', '27129', '27073', '27127', '27173', '27067', '27151', '27083']                                                       ","['27091', '46109', '19059', '27063', '27103', '27155', '46051', '27051', '27165', '27167', '27081', '27041', '27117', '46011', '27143', '27171', '27093', '27149', '27097', '27121', '27133', '46029', '27105', '46057', '27153', '27033', '46101', '27011', '27101', '46099', '27085', '27015', '46039', '19119', '27145', '27111', '19143', '27013']",Upper Sioux Community                                                                 ,,1000,     2003 ,           20000 ,               ,25.8,  21000000,174,MN,Prairie's Edge Casino Resort
32012 370 St Ogema MN 56569                        ,47.107419,-95.881584,"['27087', '27119', '27107', '27005', '27029', '27111', '27027']                                                                ","['46109', '27077', '27113', '38097', '27155', '38077', '27089', '27051', '27167', '27041', '27149', '27097', '27121', '27153', '27159', '27021', '27125', '27007', '38017', '27135', '38035', '27057']",White Earth Nation                                                                    ,,5,          ,                 ,               ,0.9,          ,175,MN,3 Bears Golf Course and Berry's Liquor Store
406 Main Ave Callaway MN 56521                     ,46.9809071110549,-95.90918635800396,"['27087', '27107', '27005', '27029', '27111', '27027']                                                                         ","['46109', '27153', '38035', '27113', '38097', '38073', '27159', '27155', '27021', '38077', '27089', '27011', '27125', '27051', '27007', '27167', '38017', '27119', '27041', '27097', '27149', '27145', '27121', '27057']",White Earth Nation                                                                    ,,22,          ,                 ,               ,1.0,          ,176,MN,City of Callaway d/b/a Callaway Liquor Store
203 South Main Street Mahnomen MN 56557            ,47.31405345,-95.96892519345931,"['27087', '27119', '27107', '27005', '27029', '27027']                                                                         ","['27077', '27113', '38097', '27155', '38077', '27089', '27051', '27167', '27069', '27041', '27153', '27159', '27021', '27125', '27007', '38017', '27135', '27111', '38035', '27057']",White Earth Nation                                                                    ,,12,     2020 ,            2100 ,               ,1.0,          ,177,MN,d/b/a Wild Rice Lounge
1004 Pleasant Ave Waubun MN 56589                  ,47.1805005,-95.9391091,"['27087', '27119', '27107', '27005', '27029', '27027']                                                                         ","['46109', '27153', '38035', '27077', '27113', '38097', '27159', '27155', '27021', '38077', '27089', '27125', '27051', '27007', '27167', '27069', '38017', '27135', '27041', '27149', '27111', '27121', '27057']",White Earth Nation                                                                    ,,10,     2004 ,            1500 ,          2020 ,1.0,          ,178,MN,Sundown Bar
777 S Casino Rd Mahnomen MN 56557                  ,47.30953801220625,-95.96493024883024,"['27087', '27119', '27107', '27005', '27029', '27027']                                                                         ","['27077', '27113', '38097', '27155', '38077', '27089', '27051', '27167', '27069', '27041', '27153', '27159', '27021', '27125', '27007', '38017', '27135', '27111', '38035', '27057']",White Earth Nation                                                                    ,,800,     1991 ,           73000 ,          2001 ,8.9,  30000000,179,MN,Shooting Star Casino-Mahnomen
1015 1st St Waubun MN 56589                        ,47.1835676,-95.943748,"['27087', '27119', '27107', '27005', '27029', '27027']                                                                         ","['46109', '27153', '38035', '27077', '27113', '38097', '38073', '27159', '27155', '27021', '38077', '27089', '27125', '27051', '27007', '27167', '27069', '38017', '27135', '27041', '27149', '27111', '27121', '27057']",White Earth Nation                                                                    ,,5,     2010 ,                 ,               ,1.0,          ,180,MN,Pappy's Cafe and Pizzeria
Naytahwaush MN 56566                               ,47.2627371,-95.6261409,"['27087', '27119', '27005', '27029']                                                                                           ","['27035', '27153', '38035', '27077', '27113', '38097', '27159', '27155', '27021', '38077', '27089', '27125', '27051', '27061', '27007', '27071', '27167', '38017', '27135', '27041', '27097', '27027', '27111', '27107', '27057']",White Earth Nation                                                                    ,,17,     1991 ,            1400 ,               ,103.5,          ,181,MN,Pinehurst Resort and Lodge Inc.
